,City,Country,Longitude,Latitude,Max. Temperature (C),Humidity (%),Wind Speed (m/s),Cloudiness (%)
0,Ushuaia,AR,-68.31,-54.81,3.0,86,3.1,18
1,Chuy,UY,-53.46,-33.69,16.11,85,3.84,23
2,Kirksville,US,-92.58,40.19,9.0,70,3.6,1
3,Khatanga,RU,102.47,71.98,-18.53,96,7.08,100
4,Grand Gaube,MU,57.66,-20.01,27.0,65,4.6,75
5,Dikson,RU,80.55,73.51,-5.73,94,8.43,100
6,Mar del Plata,AR,-67.52,-46.43,8.74,71,7.35,99
7,Busselton,AU,115.35,-33.64,27.78,33,5.55,15
8,Palmer,AU,139.16,-34.85,24.44,40,3.6,0
9,Vestmannaeyjar,IS,-20.27,63.44,7.95,77,15.29,25
10,Roros,NO,11.38,62.57,-10.0,100,0.5,100
11,Kodiak,US,-94.76,39.95,12.22,62,5.7,1
12,Betanzos,ES,-8.21,43.28,13.89,71,6.2,20
13,Yangjiang,CN,111.96,21.85,27.78,40,4.14,20
14,Nikolskoye,RU,30.79,59.7,7.0,93,5.0,75
15,Avera,US,-82.53,33.19,5.0,100,1.1,90
16,Chokurdakh,RU,147.9,70.62,-19.37,96,2.44,71
17,Geraldton,CA,-86.95,49.72,-10.0,85,1.5,90
18,Morehead,US,-83.43,38.18,7.0,48,4.6,1
19,Iqaluit,CA,-68.52,63.75,-14.0,84,7.2,75
20,Jamestown,AU,138.6,-33.21,24.34,13,4.4,0
21,Rikitea,PF,-134.97,-23.12,23.25,72,5.84,97
22,Bethel,US,-161.76,60.79,-3.0,85,6.2,90
23,Nanortalik,GL,-45.24,60.14,1.41,82,3.11,83
24,Kostino,BG,25.3,41.7,16.11,93,3.1,97
25,Carnarvon,ZA,22.13,-30.97,20.66,31,4.22,99
26,Pasaje,EC,-79.81,-3.33,21.29,85,0.75,100
27,Castro,CL,-73.76,-42.48,9.0,100,0.5,87
28,Lorengau,PG,147.27,-2.02,27.23,81,8.41,100
29,Victor Harbor,AU,138.62,-35.55,20.0,40,3.6,0
30,Hithadhoo,MV,73.08,-0.6,27.91,74,4.92,10
31,Sitka,US,-99.65,37.17,6.11,54,0.45,0
32,Cidreira,BR,-50.22,-30.17,21.36,91,7.92,99
33,Tahoua,NE,5.26,14.89,24.0,22,3.1,16
34,Guhagar,IN,73.19,17.48,26.44,67,1.59,0
35,Bredasdorp,ZA,20.04,-34.53,19.44,77,8.2,97
36,Preobrazheniye,RU,133.91,42.9,5.52,81,3.22,91
37,Vaini,IN,74.49,15.34,29.0,51,4.6,20
38,Port Hedland,AU,118.58,-20.31,42.0,9,6.7,64
39,Tiksi,RU,128.87,71.64,-27.05,99,1.36,79
40,Dingle,PH,122.67,11.0,29.85,66,1.61,32
41,Faya,SA,42.45,18.39,17.0,58,2.1,0
42,Mount Gambier,AU,140.78,-37.83,15.0,72,6.2,90
43,Avarua,CK,-159.78,-21.21,23.0,83,2.6,0
44,Barrow,AR,-60.23,-38.31,7.58,75,3.32,0
45,Bolobo,CD,16.23,-2.17,23.98,88,0.72,100
46,Puerto Ayora,EC,-90.35,-0.74,20.56,89,2.24,16
47,Bluff,AU,149.07,-23.58,32.05,9,1.33,15
48,Baykalovo,RU,40.26,64.58,-3.0,92,2.0,90
49,Ilulissat,GL,-51.1,69.22,3.0,32,9.3,80
50,Albany,US,-73.75,42.65,2.0,37,4.6,90
51,Samoded,RU,40.52,63.61,-1.89,97,2.33,100
52,Deputatskiy,RU,139.9,69.3,-26.09,100,0.78,99
53,Hermanus,ZA,19.24,-34.42,19.44,77,7.15,78
54,Umm Kaddadah,SD,26.69,13.6,24.43,18,7.36,73
55,Wicklow,IE,-6.42,53.0,3.89,96,2.1,40
56,Kanata,CA,-75.9,45.32,3.33,69,4.1,90
57,Hirara,JP,125.28,24.8,24.0,50,3.1,40
58,Atuona,PF,-139.03,-9.8,26.55,80,6.37,2
59,Cabo San Lucas,MX,-109.91,22.89,25.56,60,2.6,20
60,Kisangani,CD,25.21,0.52,24.97,81,0.88,47
61,Ostrovnoy,RU,39.51,68.05,-5.76,96,0.79,100
62,Jovellar,PH,123.6,13.07,29.08,72,4.87,53
63,Mastic Beach,US,-72.85,40.77,5.0,80,7.02,1
64,Butaritari,KI,172.79,3.07,29.62,60,0.61,86
65,Ippy,CF,21.2,6.26,23.7,65,1.21,88
66,Katherine,AU,132.26,-14.47,40.0,11,2.1,40
67,Punta Arenas,CL,-70.91,-53.16,2.0,69,1.5,33
68,Arraial do Cabo,BR,-42.02,-22.97,22.8,93,6.55,100
69,Mataura,NZ,168.86,-46.19,10.56,78,2.24,92
70,Los Llanos de Aridane,ES,-17.92,28.66,20.0,72,7.2,75
71,Paraguari,PY,-57.15,-25.62,21.0,94,2.1,100
72,Conceicao da Barra,BR,-39.73,-18.59,25.29,78,7.09,25
73,Amahai,ID,129.0,-3.31,28.35,73,2.73,63
74,Ponta do Sol,BR,-46.0,-20.63,19.6,92,1.25,100
75,Faanui,PF,-151.75,-16.48,25.39,83,5.24,100
76,Vostok,RU,135.83,46.45,-0.61,57,1.88,20
77,Smolenka,PL,22.76,54.15,6.41,93,2.68,97
78,Krasnyy Oktyabr,RU,38.88,56.12,4.02,92,3.42,98
79,Medvezhyegorsk,RU,34.47,62.92,1.05,99,1.41,100
80,The Valley,AI,-63.06,18.22,27.22,83,6.2,40
81,Cockburn Town,TC,-71.14,21.46,27.86,74,2.4,2
82,Buraydah,SA,43.97,26.33,22.0,88,7.7,75
83,Yurgamysh,RU,64.47,55.37,-5.73,67,2.33,38
84,Tuktoyaktuk,CA,-133.03,69.44,-14.0,65,6.7,5
85,Hilo,US,-155.08,19.71,26.0,78,1.5,1
86,Coihaique,CL,-72.07,-45.58,10.0,93,2.1,75
87,Lavrentiya,RU,-170.99,65.58,1.34,96,2.51,100
88,Cape Town,ZA,18.42,-33.93,18.89,82,3.6,79
89,Mkokotoni,TZ,39.25,-5.88,26.0,94,3.57,75
90,Upernavik,GL,-56.15,72.79,-8.89,67,1.25,75
91,Biograd na Moru,HR,15.45,43.94,12.22,100,2.6,75
92,Yancheng,CN,120.14,33.39,20.63,22,9.36,0
93,Marzuq,YE,46.47,14.4,23.69,32,0.39,0
94,Bilma,NE,12.92,18.69,23.58,16,3.18,0
95,Saskylakh,RU,114.09,71.97,-19.6,99,0.31,94
96,Kalmunai,LK,81.82,7.42,27.99,73,3.32,54
97,Finschhafen,PG,147.85,-6.6,27.58,73,3.08,100
98,Tasiilaq,GL,-37.64,65.61,3.0,69,16.5,100
99,Sola,TZ,33.8,-3.17,24.03,57,3.67,12
100,Norman Wells,CA,-126.83,65.28,-21.0,76,2.1,5
101,Villa Carlos Paz,AR,-64.5,-31.42,21.67,82,1.0,40
102,Byron Bay,AU,153.62,-28.65,25.0,33,5.1,90
103,Monte Alegre,BR,-54.07,-2.0,24.68,85,1.61,98
104,Kapaa,US,-159.32,22.08,24.0,83,2.6,90
105,Svetlogorsk,RU,59.15,53.14,-12.0,85,1.0,90
106,Padang,ID,100.36,-0.92,23.78,89,1.77,78
107,Matthews,US,-80.72,35.12,2.0,49,1.73,1
108,Georgetown,GY,-58.16,6.8,24.0,100,2.1,20
109,Antalaha,MG,50.28,-14.9,26.03,69,2.56,91
110,Namibe,AO,12.15,-15.19,25.04,77,1.81,26
111,Glendive,US,-104.71,47.11,-5.57,92,4.6,90
112,Aklavik,CA,-135.01,68.22,-12.0,46,1.0,5
113,Sarakhs,TM,61.16,36.54,10.0,53,1.86,0
114,San Cristobal,HN,-86.92,14.68,17.97,99,1.37,90
115,Chingirlau,KZ,54.08,51.09,0.99,62,3.57,100
116,Weston,US,-73.38,41.2,4.44,59,3.1,1
117,Kirakira,SB,161.92,-10.46,26.79,68,2.69,72
118,Souillac,FR,-0.6,45.6,6.67,87,2.1,37
119,Hope,US,-93.59,33.67,8.0,75,2.6,1
120,Noshiro,JP,140.05,40.21,9.0,70,3.6,75
121,Jacareacanga,BR,-57.76,-6.22,21.59,97,0.44,93
122,Sao Filipe,CV,-24.5,14.9,23.47,82,7.01,92
123,Severo-Kurilsk,RU,156.12,50.68,-1.46,84,8.76,93
124,Saint George,GR,22.34,39.45,13.0,100,0.65,75
125,Lompoc,US,-120.46,34.64,13.89,93,5.53,90
126,Tatvan,TR,42.28,38.5,9.0,80,2.41,0
127,Sistranda,NO,8.83,63.73,-4.44,79,3.6,40
128,Gimli,CA,-96.99,50.63,-11.11,80,2.68,61
129,East Angus,CA,-71.66,45.48,-1.0,54,2.6,90
130,New Norfolk,AU,147.06,-42.78,16.0,44,5.7,75
131,Palitana,IN,71.82,21.52,30.71,51,3.74,9
132,Haines Junction,CA,-137.51,60.75,-19.92,96,2.43,0
133,Tuatapere,NZ,167.69,-46.13,10.56,78,2.24,100
134,Klaksvik,FO,-6.59,62.23,2.0,69,1.0,87
135,Hobart,AU,147.33,-42.88,16.0,44,5.7,75
136,Ngorongoro,TZ,35.49,-3.24,21.75,63,1.99,52
137,Arles,FR,4.63,43.68,6.0,93,1.5,100
138,Saldanha,PT,-6.55,41.42,4.82,85,5.0,100
139,Carballo,ES,-8.69,43.21,13.89,71,6.2,20
140,Hofn,IS,-15.21,64.25,7.29,76,12.28,99
141,Oranjestad,AW,-70.03,12.52,28.0,83,6.2,20
142,Ribeira Grande,PT,-28.7,38.52,17.1,84,2.64,51
143,Luanda,AO,13.24,-8.83,27.0,78,2.6,75
144,Talnakh,RU,88.39,69.49,-27.0,75,2.0,40
145,Erenhot,CN,111.97,43.65,6.45,41,8.61,8
146,Honiara,SB,159.96,-9.43,25.0,94,1.0,75
147,Iracoubo,GF,-53.21,5.48,27.49,82,5.15,22
148,Kozulka,UA,23.8,50.04,8.0,100,3.0,90
149,Alyangula,AU,136.42,-13.85,35.0,23,5.7,19
150,Ryazanovskiy,RU,39.43,55.55,4.01,91,4.07,95
151,Kununurra,AU,128.74,-15.77,41.0,20,3.1,77
152,Cayenne,GF,-52.33,4.94,24.0,94,1.56,20
153,East London,ZA,27.91,-33.02,19.0,88,4.1,40
154,Nemuro,JP,145.57,43.32,5.0,48,3.1,40
155,Pisco,PE,-76.2,-13.71,17.0,82,3.1,28
156,Daman,IN,72.83,20.42,32.01,51,0.67,0
157,Ranong,TH,98.62,9.96,32.0,66,3.6,20
158,Mandalgovi,MN,106.27,45.76,2.61,28,8.13,0
159,Visnes,NO,5.22,59.36,1.67,92,0.5,75
160,Kiruna,SE,20.23,67.86,-21.0,76,2.87,0
161,Lashio,MM,97.75,22.93,26.67,55,1.05,43
162,Mitchell,US,-98.03,43.71,1.0,86,3.1,75
163,Fort Saint James,CA,-124.25,54.43,-12.21,85,2.8,100
164,Rudsar,IR,50.29,37.14,19.0,68,1.28,0
165,Keti Bandar,PK,67.45,24.14,28.25,24,5.83,7
166,Touros,BR,-35.46,-5.2,24.0,88,2.1,40
167,Sursk,RU,45.69,53.07,0.56,78,4.37,24
168,Buala,SB,159.59,-8.15,27.94,76,0.3,100
169,Mannarakkat,IN,76.47,10.98,30.0,66,2.6,75
170,Hasaki,JP,140.83,35.73,21.11,59,3.6,20
171,Salinopolis,BR,-47.36,-0.61,27.56,81,6.71,81
172,Santa Rosa,AR,-64.29,-36.62,14.35,63,3.43,50
173,Omsukchan,RU,155.8,62.53,-17.01,97,2.19,99
174,Karasburg,NA,18.75,-28.01,19.59,17,3.79,0
175,Cessnock,AU,151.35,-32.83,22.78,43,6.7,5
176,Namatanai,PG,152.44,-3.66,25.2,90,6.84,100
177,Kruisfontein,ZA,24.73,-34.0,16.8,86,7.08,97
178,Bambous Virieux,MU,57.76,-20.34,27.0,65,4.6,75
179,Sabzevar,IR,57.68,36.21,13.32,19,6.01,0
180,Sitangkai,PH,119.39,4.66,28.39,71,2.35,0
181,Puerto Penasco,MX,-113.53,31.32,22.22,88,1.79,82
182,Karratha,AU,116.85,-20.74,29.04,53,5.14,60
183,Kahului,US,-156.47,20.89,26.0,74,2.6,40
184,Fortuna,US,-124.16,40.6,10.56,93,1.48,90
185,Waingapu,ID,120.26,-9.65,28.79,67,3.39,0
186,Saint-Philippe,CA,-73.48,45.36,2.78,55,6.7,90
187,San Juan,AR,-68.53,-31.54,25.18,41,4.79,44
188,Chalus,IR,51.42,36.66,17.0,48,1.0,0
189,Guerrero Negro,MX,-114.04,27.97,20.78,68,5.1,99
190,Srednekolymsk,RU,153.71,67.46,-15.5,95,5.45,100
191,Narsaq,GL,-46.05,60.91,5.0,56,15.4,33
192,Rocky Mountain House,CA,-114.92,52.38,-9.96,93,1.87,100
193,Tahe,CN,124.71,52.34,-7.76,86,1.92,100
194,San Andres,PH,122.68,13.32,27.69,84,2.67,73
195,Tiznit,MA,-9.73,29.7,11.94,37,0.99,0
196,Hare Bay,CA,-53.99,48.86,-3.0,79,2.6,40
197,Dubuque,US,-90.66,42.5,3.33,86,1.5,40
198,Caravelas,BR,-39.27,-17.73,20.1,95,2.1,3
199,Kaitangata,NZ,169.85,-46.28,10.0,74,3.13,80
200,Tautira,PF,-149.15,-17.73,26.0,78,1.5,90
201,Naze,NG,7.07,5.43,23.0,100,5.1,75
202,Yelan,RU,43.74,50.95,3.33,94,0.45,76
203,Ormond Beach,US,-81.06,29.29,17.22,93,3.6,1
204,Sao Joao da Barra,BR,-41.05,-21.64,23.45,92,6.27,100
205,Langham,CA,-106.96,52.36,-13.0,78,2.1,90
206,Paracuru,BR,-39.03,-3.41,30.0,69,7.2,40
207,Okha,RU,142.95,53.59,-4.13,73,7.25,100
208,Weiser,US,-116.97,44.25,6.11,69,1.5,1
209,Conde,BR,-37.61,-11.81,25.89,78,7.42,10
210,Belaya Gora,RU,146.19,68.54,-21.74,97,2.22,92
211,Roald,NO,6.12,62.58,-1.0,74,6.2,40
212,Ambilobe,MG,49.05,-13.19,31.52,42,3.32,57
213,Jinka,ET,36.57,5.79,21.71,87,0.53,94
214,Gasa,BT,89.73,27.91,2.04,39,3.93,82
215,Longyearbyen,NO,15.63,78.22,-6.0,73,2.1,75
216,Mizan Teferi,ET,35.58,6.99,21.96,79,0.47,75
217,Esperance,AU,121.89,-33.86,27.0,39,10.3,34
218,Arak,IR,49.69,34.1,5.0,33,1.0,0
219,Constitucion,MX,-104.67,23.99,15.36,77,1.44,91
220,Pytalovo,RU,27.92,57.06,10.54,94,4.07,87
221,Oussouye,SN,-16.54,12.49,22.0,94,2.82,30
222,Kargasok,RU,80.87,59.06,-11.07,88,3.04,100
223,Bluefields,NI,-83.77,12.01,22.71,99,1.1,99
224,Qaanaaq,GL,-69.36,77.48,-20.62,39,2.51,0
225,Dunedin,NZ,170.5,-45.87,10.56,84,5.36,97
226,Wattegama,LK,80.68,7.35,30.18,59,1.1,96
227,Kalaleh,IR,55.49,37.38,17.0,42,0.51,0
228,Angoche,MZ,39.91,-16.23,29.93,63,3.12,85
229,Bodden Town,KY,-81.25,19.28,27.78,82,1.79,25
230,Mocuba,MZ,36.99,-16.84,30.1,58,2.05,38
231,Witu,KE,40.44,-2.39,29.0,74,3.76,75
232,Port Alfred,ZA,26.89,-33.59,18.33,94,3.13,100
233,Sidi Ali,DZ,0.42,36.1,14.28,78,5.95,100
234,Kangaatsiaq,GL,-53.46,68.31,2.84,51,12.99,57
235,Verkh-Usugli,RU,115.17,52.7,1.5,47,5.26,39
236,Cootamundra,AU,148.03,-34.64,20.56,43,1.79,73
237,Nouadhibou,MR,-17.03,20.93,18.0,68,12.3,100
238,Saint-Francois,FR,3.91,46.42,7.0,75,2.1,90
239,Cherskiy,RU,161.3,68.75,-18.88,93,0.71,7
240,Yellowknife,CA,-114.38,62.45,-15.0,77,4.1,75
241,Plettenberg Bay,ZA,23.37,-34.05,18.27,80,5.62,91
242,Mirebalais,HT,-72.1,18.83,25.0,94,1.0,18
243,Buchanan,LR,-10.05,5.88,24.0,100,1.15,75
244,Huarmey,PE,-78.15,-10.07,16.5,85,0.76,89
245,Arlit,NE,7.39,18.74,26.05,14,2.73,0
246,Logan Lake,CA,-120.81,50.49,6.0,93,1.0,90
247,Victoria,BN,115.24,5.28,31.0,70,1.5,75
248,Balanacan,PH,121.87,13.53,29.44,80,0.89,80
249,Baherden,TM,57.43,38.44,15.44,23,3.64,0
250,Bulanash,RU,62.0,57.28,-6.03,71,1.48,78
251,Yurimaguas,PE,-76.1,-5.9,22.93,93,1.4,45
252,Marsa Matruh,EG,27.25,31.35,17.0,55,2.68,86
253,Ponnani,IN,75.93,10.77,30.0,66,2.6,75
254,Kalabo,ZM,22.67,-15.0,26.48,42,2.25,100
255,Leshukonskoye,RU,45.76,64.9,-7.21,93,3.01,100
256,State College,US,-77.86,40.79,1.67,64,1.5,90
257,Srikakulam,IN,83.89,18.29,29.58,60,2.04,16
258,Vila Franca do Campo,PT,-25.43,37.72,14.0,82,3.6,20
259,Oroville,US,-121.56,39.51,15.0,47,1.7,1
260,Udachnyy,RU,112.4,66.42,-27.0,75,2.0,90
261,Nalut,LY,10.98,31.86,11.21,41,1.8,0
262,Pevek,RU,170.27,69.7,-14.2,67,1.2,0
263,Giyani,ZA,30.73,-23.32,20.18,79,1.84,98
264,Mount Isa,AU,139.49,-20.73,34.0,7,3.6,67
265,Thompson,CA,-97.86,55.74,-21.0,76,4.6,75
266,Media Luna,BO,-64.63,-21.67,12.78,95,3.01,99
267,Stonewall,CA,-97.33,50.13,-11.11,71,4.1,20
268,Kunfeherto,HU,19.41,46.36,10.56,93,3.1,90
269,Mayor Pablo Lagerenza,PY,-60.77,-19.93,23.63,78,2.69,93
270,Adrar,DZ,-0.29,27.87,7.0,42,3.6,0
271,Bereda,ES,-7.54,43.27,12.78,71,6.2,20
272,Hatta,IN,79.6,24.13,27.44,39,2.45,0
273,Catuday,PH,119.81,16.29,27.99,67,0.93,100
274,Westport,US,-73.36,41.14,5.0,59,3.1,1
275,Grindavik,IS,-22.43,63.84,6.0,87,11.3,75
276,Dalby,AU,151.26,-27.18,29.44,12,8.7,0
277,Port Blair,IN,92.75,11.67,27.87,71,1.51,22
278,Blyth,GB,-1.5,55.12,6.11,93,2.1,40
279,Sungaipenuh,ID,101.38,-2.08,23.54,75,0.81,79
280,Kavaratti,IN,72.64,10.57,30.0,70,3.1,20
281,Shelburne,CA,-80.2,44.08,2.22,69,4.1,90
282,Ginosa,IT,16.76,40.58,15.0,87,4.6,20
283,Novokizhinginsk,RU,109.59,51.61,-6.18,57,6.31,100
284,Borodino,RU,94.89,55.9,-9.7,54,5.09,100
285,Lodja,CD,23.6,-3.52,23.48,90,0.54,98
286,Saravan,AM,45.65,39.72,7.0,65,1.0,0
287,Mahebourg,MU,57.7,-20.41,27.0,65,4.6,75
288,Robertsport,LR,-11.37,6.75,27.28,77,2.94,63
289,Sirsa,IN,75.04,29.54,25.63,19,2.39,0
290,Jumla,NP,82.18,29.28,15.13,23,2.55,0
291,Svetlaya,RU,138.33,46.54,4.22,39,2.33,0
292,Port Macquarie,AU,152.91,-31.43,22.22,45,7.2,90
293,Launceston,AU,147.14,-41.43,18.89,45,2.6,90
294,Ahipara,NZ,173.16,-35.17,15.56,100,9.65,87
295,Pacific Grove,US,-121.92,36.62,12.22,87,3.1,90
296,Bathsheba,BB,-59.52,13.22,23.0,88,2.6,75
297,Vigrestad,NO,5.7,58.57,1.67,92,0.5,75
298,Gushikawa,JP,127.87,26.35,26.0,39,1.5,20
299,Taltal,CL,-70.49,-25.41,11.07,92,3.32,46
300,Peace River,CA,-117.29,56.23,-16.0,71,4.6,90
301,Baoying,CN,119.31,33.24,21.66,19,9.39,0
302,Constantine,DZ,6.61,36.36,7.0,70,2.1,40
303,Wamba,CD,27.99,2.14,24.12,73,0.8,100
304,Ojinaga,US,-104.41,29.56,16.0,82,3.1,1
305,Asosa,ET,34.53,10.07,22.99,81,0.46,70
306,Kulhudhuffushi,MV,73.07,6.62,27.82,66,1.39,0
307,Buin,CL,-70.74,-33.73,22.22,45,1.0,0
308,Ulladulla,AU,150.48,-35.36,22.0,37,4.6,40
309,Wakkanai,JP,141.67,45.41,4.0,51,7.7,75
310,Lagoa,PT,-8.45,37.14,14.0,71,4.6,100
311,Ilhabela,BR,-45.36,-23.78,23.63,87,2.31,100
312,Buta,CD,24.73,2.79,24.51,75,0.58,2
313,Varnavino,RU,46.56,61.19,-3.38,95,4.38,100
314,Awbari,LY,12.77,26.59,22.85,37,5.07,100
315,Cardston,CA,-113.32,49.2,-7.78,92,4.1,90
316,Tyazhinskiy,RU,88.52,56.11,-10.75,66,3.07,25
317,Saint-Pierre,FR,4.24,48.95,5.0,93,6.2,90
318,Port Elizabeth,US,-74.98,39.31,2.78,85,2.07,1
319,Douglas,US,-134.39,58.28,2.0,46,3.6,75
320,Great Yarmouth,GB,1.73,52.61,5.56,93,0.5,25
321,Lazaro Cardenas,MX,-105.62,28.39,14.44,85,0.89,100
322,Ixtapa,MX,-105.21,20.71,27.22,94,1.5,20
323,Bogorodskoye,RU,140.44,52.37,-7.76,72,2.04,0
324,Gat,SN,-16.54,14.69,22.0,94,6.2,36
325,Astara,AZ,48.87,38.42,14.0,52,1.34,0
326,Chicama,PE,-79.15,-7.84,18.0,82,2.6,75
327,Tual,ID,132.75,-5.67,29.03,66,2.05,85
328,Vao,EE,26.19,59.1,8.28,95,4.27,100
329,Port Lincoln,AU,135.86,-34.72,17.69,59,4.69,0
330,Fairbanks,US,-147.72,64.84,-19.0,83,1.77,1
331,Kenai,US,-151.26,60.55,0.56,86,3.6,20
332,Comodoro Rivadavia,AR,-67.48,-45.87,8.0,70,2.6,70
333,Mahon,IE,-8.4,51.89,3.33,93,3.6,20
334,Alofi,NU,-169.92,-19.06,24.0,83,3.6,2
335,Uyuni,BO,-66.82,-20.46,8.26,26,3.19,48
336,Zlobin,HR,14.65,45.29,12.78,66,4.6,40
337,Coquimbo,CL,-71.34,-29.95,12.0,93,0.5,0
338,Belmonte,PT,-7.35,40.36,11.11,78,2.51,100
339,Sibolga,ID,98.78,1.74,26.95,85,1.93,84
340,Petropavlovsk-Kamchatskiy,RU,158.65,53.05,2.0,74,2.0,40
341,Pangnirtung,CA,-65.72,66.15,-7.6,65,3.68,100
342,Sinnamary,GF,-52.96,5.38,27.49,82,5.15,22
343,Sao Pedro do Sul,BR,-54.18,-29.62,18.58,98,2.89,100
344,Clyde River,CA,-68.59,70.47,-9.0,92,15.9,90
345,Torbay,CA,-52.73,47.66,0.0,58,3.1,20
346,Sabang,PH,121.11,13.8,29.44,80,0.89,85
347,Shimoda,JP,138.93,34.7,19.0,52,2.6,20
348,Hamilton,CA,-79.87,43.26,4.0,74,5.1,75
349,Yarim,YE,44.38,14.3,15.73,25,2.34,0
350,Cam Ranh,VN,109.15,11.92,23.0,94,3.6,90
351,Balkhash,KZ,74.98,46.84,5.0,45,5.0,20
352,Abasolo,MX,-101.53,20.45,15.0,72,5.7,40
353,Jiangkou,CN,117.56,30.7,23.05,32,3.55,24
354,Koping,SE,15.99,59.51,-0.57,80,7.2,100
355,Necochea,AR,-58.74,-38.55,4.44,88,0.45,0
356,Setermoen,NO,18.35,68.86,-29.0,82,2.6,0
357,Tilichiki,RU,166.1,60.47,-0.89,96,5.26,100
358,West Plains,US,-91.85,36.73,9.0,75,2.6,1
359,Felipe Carrillo Puerto,MX,-88.05,19.58,22.32,99,1.76,10
360,Bintulu,MY,113.03,3.17,32.0,70,2.6,75
361,Javanrud,IR,46.49,34.8,8.0,45,2.68,0
362,Talavera,PE,-73.43,-13.65,10.07,80,1.62,100
363,Luderitz,NA,15.16,-26.65,18.0,72,2.6,20
364,Vesele,UA,34.92,47.02,11.15,84,6.03,3
365,Poum,MK,20.71,41.28,10.0,87,1.0,75
366,Anito,PH,125.29,12.45,28.67,75,7.27,37
367,Codrington,AU,153.24,-28.95,24.0,33,5.1,90
368,Walker,US,-85.77,43.01,7.0,65,3.1,90
369,Ampanihy,MG,44.75,-24.69,22.86,68,4.85,48
370,Krutinka,RU,71.51,56.01,-6.85,47,2.19,13
371,Nizhniy Ingash,RU,96.53,56.2,-9.7,55,4.3,100
372,Doha,QA,51.53,25.29,31.0,52,2.1,75
373,Salalah,OM,54.1,17.01,28.0,58,4.1,20
374,Alice Springs,AU,133.88,-23.7,31.0,6,3.1,0
375,Tonstad,NO,6.71,58.66,1.11,92,0.5,75
376,Hambantota,LK,81.12,6.12,28.0,94,1.5,75
377,Broome,GB,1.45,52.47,5.0,93,0.5,25
378,Lebu,ET,38.73,8.96,18.0,45,2.1,4
379,Green Valley,US,-89.64,40.41,6.67,80,1.5,90
380,Huilong,CN,106.5,31.15,20.06,58,1.25,97
381,Mehamn,NO,27.85,71.03,-7.8,88,4.16,20
382,Beringovskiy,RU,179.32,63.05,1.89,99,5.29,100
383,Isangel,VU,169.27,-19.55,28.0,61,4.1,75
384,Visby,SE,18.3,57.64,6.67,93,6.7,100
385,Kalach-na-Donu,RU,43.52,48.69,4.0,86,8.0,75
386,Hualmay,PE,-77.61,-11.1,16.02,87,1.27,73
387,Khani,GE,42.96,41.96,19.0,37,8.2,0
388,Marsabit,KE,37.99,2.34,25.31,67,10.34,98
389,Abu Zabad,SD,29.25,12.35,25.95,18,7.5,44
390,Borovoy,RU,52.89,63.23,-9.13,92,3.05,100
391,Yaan,NG,8.57,7.38,24.77,87,2.07,100
392,Taoudenni,ML,-3.98,22.68,18.33,29,4.39,100
393,Ust-Kuyga,RU,135.55,70.0,-28.91,99,2.37,35
394,Muros,ES,-9.06,42.77,12.22,93,0.5,75
395,Hanyang,CN,105.51,32.14,20.0,52,1.97,30
396,Forio,IT,13.86,40.73,12.0,93,1.5,20
397,Barkhan,PK,69.52,29.9,17.39,23,1.69,0
398,Sosva,RU,61.86,59.17,-8.89,76,0.72,95
399,Kiunga,PG,141.3,-6.12,32.79,48,1.42,65
400,Ceska Lipa,CZ,14.54,50.69,1.11,92,2.1,75
401,Marsh Harbour,BS,-77.06,26.54,23.4,69,6.92,69
402,Ukiah,US,-123.21,39.15,13.89,57,1.14,1
403,Shahrud,IR,54.97,36.42,10.48,18,1.93,0
404,Abnub,EG,31.15,27.27,17.0,72,4.1,0
405,Mackay,CA,-115.58,53.65,-12.0,85,4.1,90
406,Bilibino,RU,166.44,68.06,-16.22,54,1.63,0
407,Inirida,CO,-67.92,3.87,22.87,93,0.81,42
408,Chabahar,IR,60.65,25.29,25.0,57,3.1,75
409,Provideniya,RU,-173.23,64.42,1.09,98,1.88,100
410,Rybnaya Sloboda,RU,50.14,55.46,-1.0,86,5.0,90
411,Gursarai,IN,79.18,25.62,29.37,25,3.37,0
412,Chiang Mai,TH,98.99,18.79,31.67,58,2.6,40
413,Watertown,US,-97.12,44.9,0.56,92,4.1,90
414,Terrace,CA,-128.61,54.52,5.0,86,6.7,75
415,Fare,PF,-151.02,-16.7,25.56,83,6.31,100
416,Atar,MR,-13.05,20.52,21.88,21,4.01,100
417,Tommot,RU,126.27,58.97,-6.26,95,0.58,100
418,Hargeysa,SO,44.06,9.56,18.0,93,3.1,40
419,Quelimane,MZ,36.89,-17.88,29.0,70,4.6,75
420,Kenitra,MA,-6.57,34.26,12.78,87,3.6,75
421,Navashino,RU,42.19,55.54,1.85,85,5.18,74
422,Walvis Bay,NA,14.51,-22.95,13.89,93,3.1,90
423,Novikovo,RU,37.89,51.15,5.98,93,4.8,45
424,Cody,US,-109.06,44.53,6.0,52,2.6,1
425,Calvinia,ZA,19.78,-31.47,14.0,47,0.5,100
426,Carutapera,BR,-46.02,-1.2,27.24,81,6.13,74
427,Katete,UG,29.75,-0.78,19.77,74,1.64,77
428,Mezen,RU,44.24,65.85,-8.3,93,4.05,100
429,Dourbali,TD,15.86,11.81,27.93,22,2.95,84
430,Okitipupa,NG,4.78,6.5,24.34,94,0.06,100
431,Vignola,IT,11.01,44.48,7.0,93,0.5,75
432,Flinders,AU,150.85,-34.58,22.0,37,4.6,40
433,Nicoya,CR,-85.45,10.15,26.0,78,3.1,40
434,La Ronge,CA,-105.3,55.1,-13.0,60,5.7,90
435,Boyolangu,ID,111.9,-8.09,33.14,46,5.27,29
436,Beloha,MG,45.06,-25.17,24.44,59,4.76,89
437,Kattivakkam,IN,80.32,13.22,32.0,59,2.6,20
438,Airai,TL,125.41,-8.93,29.01,39,3.99,80
439,Ouadda,CF,22.4,8.07,22.69,48,2.36,23
440,Nyurba,RU,118.35,63.29,-14.76,83,3.66,99
441,High Level,CA,-117.13,58.52,-25.0,75,1.43,1
442,Effingham,US,-88.54,39.12,7.0,60,1.5,1
443,Tefe,BR,-64.71,-3.35,24.22,84,0.2,60
444,Mildura,AU,142.16,-34.18,25.56,22,4.1,0
445,Senaki,GE,42.06,42.27,19.0,37,8.2,0
446,Kungalv,SE,11.98,57.87,2.78,89,5.1,90
447,Sao Felix do Xingu,BR,-51.99,-6.64,22.4,98,0.48,100
448,Presidente Medici,BR,-61.9,-11.18,22.61,93,1.22,75
449,Cartagena,ES,-1.0,37.63,16.0,51,8.2,84
450,Casian,RO,28.48,44.5,16.11,100,4.1,58
451,Shadrinsk,RU,63.63,56.09,-5.43,75,2.96,36
452,Oranjemund,ZA,16.43,-28.55,16.5,78,1.86,97
453,Novoagansk,RU,76.66,61.94,-14.85,92,2.05,100
454,Tezu,IN,96.16,27.93,20.61,77,0.83,100
455,Piterka,RU,47.44,50.68,3.45,74,4.85,0
456,Leningradskiy,RU,178.42,69.38,-7.83,58,1.68,7
457,Sao Gabriel,BR,-54.32,-30.34,18.59,92,4.46,76
458,Kampong Thum,KH,104.89,12.71,28.61,62,3.76,71
459,Shimanovsk,RU,127.67,52.0,-5.67,87,3.78,100
460,Opuwo,NA,13.84,-18.06,22.31,25,4.49,100
461,Vanavara,RU,102.28,60.35,-21.63,89,3.9,100
462,Hobyo,SO,48.53,5.35,28.35,60,6.13,8
463,Muret,FR,1.33,43.46,7.22,81,5.1,90
464,Goderich,CA,-81.71,43.74,5.56,80,5.36,83
465,Atasu,KZ,71.64,48.68,-2.6,79,10.37,99
466,Nanaimo,CA,-123.94,49.17,10.56,93,1.0,90
467,Kieta,PG,155.63,-6.22,28.41,69,2.16,61
468,Hannibal,US,-91.36,39.71,9.44,65,3.6,1
469,Nivala,FI,24.96,63.93,-5.0,94,3.23,100
470,San Carlos,NI,-84.78,11.12,23.33,1,6.71,100
471,Waipawa,NZ,176.59,-39.94,18.33,87,4.39,100
472,Salcedo,DO,-70.42,19.38,26.11,94,0.97,75
473,Oxbow,CA,-102.17,49.23,-10.0,72,6.2,90
474,Kiama,AU,150.86,-34.67,22.0,37,4.6,40
475,Marrakesh,MA,-7.99,31.63,8.0,70,2.1,0
476,Iskateley,RU,53.15,67.68,-14.45,92,3.91,50
477,Porto Nacional,BR,-48.41,-10.7,23.0,100,1.5,44
478,Joshimath,IN,79.57,30.57,13.18,21,2.79,0
479,Pokhara,NP,83.99,28.21,27.27,46,0.84,0
480,Matagami,NG,8.4,9.67,22.59,53,2.07,100
481,Sorong,ID,131.25,-0.86,28.01,86,2.24,70
482,Lata,IN,78.62,30.78,2.93,20,3.74,0
483,Komsomolskiy,RU,63.78,67.55,-21.15,100,2.1,51
484,San Patricio,PY,-56.83,-26.98,21.75,98,2.12,100
485,Mitsamiouli,KM,43.28,-11.38,32.0,52,5.7,20
486,Richards Bay,ZA,32.06,-28.77,21.19,78,8.57,61
487,Porto Velho,BR,-63.87,-8.75,24.0,94,1.5,75
488,Henties Bay,NA,14.28,-22.12,13.89,95,1.34,0
489,Sembakung,ID,117.25,3.82,33.21,51,3.05,41
490,Skjervoy,NO,20.97,70.03,-2.03,50,3.43,0
491,Vagamo,NO,9.1,61.88,-13.91,91,1.23,94
492,Fillmore,US,-118.91,34.4,22.0,76,3.67,1
493,Zhigalovo,RU,105.15,54.81,-10.29,70,4.8,100
494,Oxford,US,-85.83,33.61,5.56,100,0.81,1
495,Cap Malheureux,MU,57.61,-19.98,27.0,65,4.6,75
496,Qitaihe,CN,131.01,45.77,5.01,49,1.98,94
497,Nelson Bay,AU,152.14,-32.72,22.22,43,6.7,17
498,Wasilla,US,-149.44,61.58,2.78,52,3.1,75
499,Saint-Leu,RE,55.28,-21.15,28.0,65,3.6,100
500,Tura,RU,100.22,64.27,-25.44,88,1.83,77
501,Luganville,VU,167.18,-15.51,28.0,74,1.5,75
502,Karatau,KZ,70.46,43.18,9.63,32,10.84,85
503,Upington,ZA,21.24,-28.46,21.0,26,1.5,6
504,Shangqiu,CN,115.65,34.42,22.78,25,7.98,0
505,Kavieng,PG,150.8,-2.57,26.27,81,1.89,100
506,Kathmandu,NP,85.32,27.71,21.0,64,1.0,20
507,Biak,ID,122.88,-0.91,25.38,85,6.64,94
508,Burnie,AU,145.91,-41.05,17.22,53,4.47,100
509,Valle de Allende,MX,-105.39,26.94,14.14,89,3.63,88
510,Prince Rupert,CA,-130.32,54.32,10.0,87,4.6,90
511,Korhogo,CI,-5.63,9.46,23.08,77,1.21,0
512,Krasnyy Chikoy,RU,108.75,50.36,-5.7,64,4.93,100
513,Neuquen,AR,-68.06,-38.95,15.0,38,5.1,79
514,Buchmany,UA,28.04,51.07,9.88,97,3.29,99
515,Ayagoz,KZ,80.43,47.96,3.18,67,3.22,100
516,Vila Velha,BR,-38.6,-3.71,30.0,69,7.2,40
517,Katsuura,JP,134.5,33.93,16.0,51,3.6,75
518,Alegre,BR,-41.53,-20.76,19.68,97,1.35,94
519,Seoul,KR,126.98,37.57,15.0,44,1.5,20
520,Zhigansk,RU,123.37,66.77,-15.21,93,5.29,100
521,Shumyachi,RU,32.43,53.86,10.02,94,5.77,100
522,Port Moresby,PG,147.16,-9.47,28.0,78,5.1,40
523,Horizontina,BR,-54.31,-27.63,18.89,97,0.34,100
524,Margate,AU,147.26,-43.03,16.0,44,5.7,75
525,Sudak,UA,34.97,44.85,15.56,50,1.29,0
526,At-Bashi,KG,75.81,41.17,-4.2,35,0.87,1
527,Imeni Poliny Osipenko,RU,136.49,52.42,-4.52,37,4.17,16
528,Chiang Khong,LA,100.41,20.27,28.89,69,1.5,40
529,Salto,BR,-47.29,-23.2,24.44,83,5.7,100
530,Male,UA,33.7,50.74,9.13,91,5.62,74
531,Hami,CN,93.51,42.84,9.26,18,1.34,0
532,Manado,ID,124.85,1.49,30.0,62,1.5,20
533,Havelock,US,-76.9,34.88,7.0,93,1.39,90
534,Tulun,RU,100.58,54.56,-8.02,56,5.63,41
535,Marshall,US,-93.2,39.12,12.22,76,5.1,1
536,Biltine,TD,20.93,14.53,26.17,16,6.77,99
537,Saint-Augustin,CA,-73.98,45.63,2.78,59,5.1,90
538,Mizdah,LY,12.98,31.45,9.82,82,0.34,0
539,Yarada,IN,83.27,17.65,32.0,49,2.1,20
540,Dudinka,RU,86.18,69.41,-27.0,75,2.0,40
541,Concarneau,FR,-3.92,47.88,8.89,75,7.7,75
542,Alexandria,RO,25.33,43.97,13.89,76,0.45,40
543,Tambovka,RU,47.38,47.32,9.14,74,7.38,56
544,Campina Verde,BR,-49.49,-19.54,22.29,85,2.0,100
545,Bara,NG,10.6,10.41,25.58,42,1.27,100
546,Inuvik,CA,-133.71,68.36,-12.0,46,1.0,5
547,Ghanzi,BW,21.65,-21.7,25.97,42,4.59,89
548,Markivka,UA,39.57,49.52,7.01,89,5.29,69
549,Bonthe,SL,-12.5,7.53,25.36,84,1.13,38
550,Ancud,CL,-73.83,-41.87,9.0,100,0.5,74
551,Watsa,CD,29.53,3.04,22.33,85,1.16,48
552,Sanming,CN,117.6,26.24,20.45,39,1.83,65
553,Nishihara,JP,139.53,35.74,20.0,45,1.0,20
554,Lucapa,AO,20.74,-8.42,21.8,93,0.52,100
555,Rjukan,NO,8.59,59.88,-9.44,95,2.68,80
556,Kaduna,NG,7.44,10.52,22.66,42,1.1,100
557,Batagay-Alyta,RU,130.41,67.8,-26.73,79,1.8,29
558,Mackenzie,CA,-123.09,55.34,-12.0,60,2.1,90
559,Port Hueneme,US,-119.2,34.15,22.0,93,3.6,20
